{
  "cities": [
    {
      "cityName": "Lisbon",
      "country": "Portugal",
      "emoji": "ðŸ‡µðŸ‡¹",
      "date": "2027-10-31T15:59:59.138Z",
      "notes": "My favorite city so far!",
      "position": {
        "lat": 38.727881642324164,
        "lng": -9.140900099907554
      },
      "id": "73930385"
    },
    {
      "cityName": "Madrid",
      "country": "Spain",
      "emoji": "ðŸ‡ªðŸ‡¸",
      "date": "2027-07-15T08:22:53.976Z",
      "notes": "",
      "position": {
        "lat": 40.46635901755316,
        "lng": -3.7133789062500004
      },
      "id": "17806751"
    },
    {
      "cityName": "Berlin",
      "country": "Germany",
      "emoji": "ðŸ‡©ðŸ‡ª",
      "date": "2027-02-12T09:24:11.863Z",
      "notes": "Amazing ðŸ˜ƒ",
      "position": {
        "lat": 52.53586782505711,
        "lng": 13.376933665713324
      },
      "id": "98443197"
    },
    {
      "id": "d596",
      "cityName": "Manila",
      "country": "Philippines (the)",
      "date": "2026-02-19T07:40:33.970Z",
      "emoji": "ðŸ‡µðŸ‡­",
      "notes": "It was nice!",
      "position": {
        "lat": "14.388792575093193",
        "lng": "121.04187011718751"
      }
    },
    {
      "id": "d993",
      "cityName": "Tokyo",
      "country": "Japan",
      "date": "2026-02-19T07:43:50.719Z",
      "emoji": "ðŸ‡¯ðŸ‡µ",
      "notes": "This city was really something",
      "position": {
        "lat": "35.68288635897557",
        "lng": "139.75476264953616"
      }
    },
    {
      "id": "e5cd",
      "cityName": "Seoul",
      "country": "Korea (the Republic of)",
      "date": "2026-02-19T08:49:00.482Z",
      "emoji": "ðŸ‡°ðŸ‡·",
      "notes": "The Trip was something unique!",
      "position": {
        "lat": "37.56961676185728",
        "lng": "127.00469970703126"
      }
    }
  ]
}